{
   "type": "FeatureCollection",
   "features": [
  {
    "type": "Feature",
    "geometry": {
       "type": "Point",
       "coordinates":  [14.143264,52.3649 ]
    },
    "properties": {
	"Type":"Solar Power Station",
    "Name":"Neuhardenberg Solar Park[]",
    "Location":"Neuhardenberg",
    "Capacity (MW)":145,
    "Remarks":" - "
    }
  },
  {
    "type": "Feature",
    "geometry": {
       "type": "Point",
       "coordinates":  [11.44,51.28 ]
    },
    "properties": {
	"Type":"Solar Power Station",
    "Name":"Amsdorf Solar Park[2]",
    "Location":"Amsdorf",
    "Capacity (MW)":28,
    "Remarks":" - "
    }
  },
  {
    "type": "Feature",
    "geometry": {
       "type": "Point",
       "coordinates":  [13.40,51.50 ]
    },
    "properties": {
	"Type":"Solar Power Station",
    "Name":"Solarpark Heideblick[3]",
    "Location":"Heideblick",
    "Capacity (MW)":27.5,
    "Remarks":" - "
    }
  },
  {
    "type": "Feature",
    "geometry": {
       "type": "Point",
       "coordinates":  [13.36,52.34 ]
    },
    "properties": {
	"Type":"Solar Power Station",
    "Name":"Solarpark Eiche[4]",
    "Location":"Eiche",
    "Capacity (MW)":26.5,
    "Remarks":" - "
    }
  },
  {
    "type": "Feature",
    "geometry": {
       "type": "Point",
       "coordinates":  [10.2527,48.3213 ]
    },
    "properties": {
	"Type":"Solar Power Station",
    "Name":"Lauingen Energy Park[5]",
    "Location":"Lauingen",
    "Capacity (MW)":25.7,
    "Remarks":"26980 - "
    }
  },
  {
    "type": "Feature",
    "geometry": {
       "type": "Point",
       "coordinates":  [9.5515,50.010 ]
    },
    "properties": {
	"Type":"Solar Power Station",
    "Name":"1408 SOLON mover",
    "Location":"Arnstein",
    "Capacity (MW)":12,
    "Remarks":"14000 - 0.13"
    }
  },
  {
    "type": "Feature",
    "geometry": {
       "type": "Point",
       "coordinates":  [13.1755,48.224 ]
    },
    "properties": {
	"Type":"Solar Power Station",
    "Name":"57,912 solar modules",
    "Location":"Pocking",
    "Capacity (MW)":10,
    "Remarks":"11500 - 0.13"
    }
  },
  {
    "type": "Feature",
    "geometry": {
       "type": "Point",
       "coordinates":  [11.2559,49.0929 ]
    },
    "properties": {
	"Type":"Solar Power Station",
    "Name":"57,600 solar modules",
    "Location":"Mühlhausen",
    "Capacity (MW)":6.3,
    "Remarks":"6750 - 0.12"
    }
  },
  {
    "type": "Feature",
    "geometry": {
       "type": "Point",
       "coordinates":  [8.28,49.39 ]
    },
    "properties": {
	"Type":"Solar Power Station",
    "Name":"30,000 BP Solar modules",
    "Location":"Bürstadt",
    "Capacity (MW)":5,
    "Remarks":"4200 - 0.1"
    }
  },
  {
    "type": "Feature",
    "geometry": {
       "type": "Point",
       "coordinates":  [12.31,51.12 ]
    },
    "properties": {
	"Type":"Solar Power Station",
    "Name":"33,500 Shell Solar modules",
    "Location":"Espenhain",
    "Capacity (MW)":5,
    "Remarks":"5000 - 0.11"
    }
  },
  {
    "type": "Feature",
    "geometry": {
       "type": "Point",
       "coordinates":  [12.0,51.22 ]
    },
    "properties": {
	"Type":"Solar Power Station",
    "Name":"25,000 BP solar modules",
    "Location":"Merseburg",
    "Capacity (MW)":4,
    "Remarks":"3400 - 0.1"
    }
  },
  {
    "type": "Feature",
    "geometry": {
       "type": "Point",
       "coordinates":  [7.2,49.21 ]
    },
    "properties": {
	"Type":"Solar Power Station",
    "Name":"50,000 solar modules",
    "Location":"Gottelborn",
    "Capacity (MW)":4,
    "Remarks":"8200 - 0.23"
    }
  },
  {
    "type": "Feature",
    "geometry": {
       "type": "Point",
       "coordinates":  [11.47,49.3 ]
    },
    "properties": {
	"Type":"Solar Power Station",
    "Name":"32,740 solar modules",
    "Location":"Hemau",
    "Capacity (MW)":4,
    "Remarks":"3900 - 0.11"
    }
  },
  {
    "type": "Feature",
    "geometry": {
       "type": "Point",
       "coordinates":  [12.30,48.38 ]
    },
    "properties": {
	"Type":"Solar Power Station",
    "Name":"Solara, Sharp and Kyocera solar modules",
    "Location":"Dingolfing",
    "Capacity (MW)":3.3,
    "Remarks":"3050 - 0.11"
    }
  },
  {
    "type": "Feature",
    "geometry": {
       "type": "Point",
       "coordinates":  [11.34,49.16 ]
    },
    "properties": {
	"Type":"Solar Power Station",
    "Name":"Sharp solar modules",
    "Location":"Guenching",
    "Capacity (MW)":1.9,
    "Remarks":"- - "
    }
  }
]
}
